[{"name":"Cadillac Solitario","location":{"type":"Point","coordinates":[40.4873953865,-3.6996611466]}},{"name":"Teatro Kapital","location":{"type":"Point","coordinates":[40.4098642642,-3.6932513431]}},{"name":"Medias Puri","location":{"type":"Point","coordinates":[40.4124446254,-3.7034908342]}},{"name":"Zoe","location":{"type":"Point","coordinates":[40.4326686242,-3.6790343902]}},{"name":"Teatro Barcel\u00f3","location":{"type":"Point","coordinates":[40.4269537731,-3.6997838477]}},{"name":"Maravillas EspectaClub","location":{"type":"Point","coordinates":[40.4258256152,-3.7043476294]}},{"name":"Sala Taboo","location":{"type":"Point","coordinates":[40.4257117652,-3.7030988892]}},{"name":"Star Studio 54","location":{"type":"Point","coordinates":[40.4188925054,-3.7034269131]}},{"name":"Sala But (Ochoymedio)","location":{"type":"Point","coordinates":[40.4269180583,-3.6996282059]}},{"name":"Sala La Riviera","location":{"type":"Point","coordinates":[40.4130601544,-3.7221520933]}},{"name":"Opium","location":{"type":"Point","coordinates":[40.438028872,-3.6920330714]}},{"name":"Joy Eslava","location":{"type":"Point","coordinates":[40.4169526383,-3.7066937741]}},{"name":"Le Boutique","location":{"type":"Point","coordinates":[40.429424433,-3.6875452414]}},{"name":"Diamante Club","location":{"type":"Point","coordinates":[40.4249460879,-3.7139218174]}},{"name":"Clubbers Shot Point","location":{"type":"Point","coordinates":[40.4157491444,-3.703816278]}},{"name":"Vanila","location":{"type":"Point","coordinates":[40.4479435508,-3.6909478763]}},{"name":"New Garamond","location":{"type":"Point","coordinates":[40.462611363,-3.6931201357]}},{"name":"Sala Arena","location":{"type":"Point","coordinates":[40.4247214938,-3.7121660684]}},{"name":"Cuenca Club","location":{"type":"Point","coordinates":[40.4248991354,-3.7139674904]}},{"name":"Reina Bruja","location":{"type":"Point","coordinates":[40.4201817859,-3.7078201855]}},{"name":"Karaoke Nabucco","location":{"type":"Point","coordinates":[40.4317773479,-3.6580190492]}},{"name":"Black Star Madrid","location":{"type":"Point","coordinates":[40.4543543935,-3.6779580417]}},{"name":"Garamond","location":{"type":"Point","coordinates":[40.4217688079,-3.6869446427]}},{"name":"La Nuit Summertime","location":{"type":"Point","coordinates":[40.4489089683,-3.6953290461]}},{"name":"La Cocina RockBar","location":{"type":"Point","coordinates":[40.4584493518,-3.6793359433]}},{"name":"Vanity","location":{"type":"Point","coordinates":[40.4338185224,-3.6912699659]}},{"name":"Restaurante Macadamia - Discoteca Graf","location":{"type":"Point","coordinates":[40.4375593543,-3.6811005765]}},{"name":"Rock&Roll Radio Club","location":{"type":"Point","coordinates":[40.4241290754,-3.6954892014]}},{"name":"Cop\u00e9rnico","location":{"type":"Point","coordinates":[40.4353588327,-3.7135194521]}},{"name":"Tryp Chamberi","location":{"type":"Point","coordinates":[40.4382017,-3.7006407]}},{"name":"Apartamentos Recoletos","location":{"type":"Point","coordinates":[40.4227708966,-3.6903671479]}},{"name":"B12 The Bar Lab","location":{"type":"Point","coordinates":[40.4459308677,-3.6863798308]}},{"name":"Commo","location":{"type":"Point","coordinates":[40.415256871,-3.7022675589]}},{"name":"Freeway","location":{"type":"Point","coordinates":[40.4255280707,-3.7019048905]}},{"name":"Mar\u00eda Elena Palace","location":{"type":"Point","coordinates":[40.418555217,-3.7013202912]}},{"name":"Mercato Ballar\u00f3","location":{"type":"Point","coordinates":[40.4310122628,-3.6969885797]}},{"name":"Panaderia Granier","location":{"type":"Point","coordinates":[40.4504389,-3.7033058089]}},{"name":"Gourmet Experience","location":{"type":"Point","coordinates":[40.4196666097,-3.7054582485]}},{"name":"El Peletazo","location":{"type":"Point","coordinates":[40.4323853784,-3.6730428262]}},{"name":"Discoteca Palace","location":{"type":"Point","coordinates":[40.4184509792,-3.7091022979]}},{"name":"Chocolater\u00eda San Gin\u00e9s","location":{"type":"Point","coordinates":[40.416754337,-3.7070788402]}},{"name":"Mitty Cats","location":{"type":"Point","coordinates":[40.4426117148,-3.713501698]}},{"name":"Colonial Norte","location":{"type":"Point","coordinates":[40.4213367513,-3.7201213175]}},{"name":"Zoo Aquarium de Madrid","location":{"type":"Point","coordinates":[40.4094822979,-3.7614433737]}},{"name":"Platea Madrid","location":{"type":"Point","coordinates":[40.426083289,-3.6886641649]}},{"name":"Vendetta","location":{"type":"Point","coordinates":[40.4113004125,-3.7139737763]}},{"name":"Hotel NH Madrid Nacional","location":{"type":"Point","coordinates":[40.4098718939,-3.6924590507]}},{"name":"Abercrombie & Fitch","location":{"type":"Point","coordinates":[40.4302277136,-3.6803771542]}},{"name":"Sala Excalibur Metal","location":{"type":"Point","coordinates":[40.3947617179,-3.6610605493]}},{"name":"Shoko Madrid","location":{"type":"Point","coordinates":[40.4088590291,-3.7110245097]}},{"name":"MON Live","location":{"type":"Point","coordinates":[40.4359355545,-3.7161264795]}},{"name":"Carrefour","location":{"type":"Point","coordinates":[40.46946052,-3.640916247]}},{"name":"Discoteca Ole Con Ole","location":{"type":"Point","coordinates":[40.4098470923,-3.7132556269]}},{"name":"Forus Chamart\u00edn","location":{"type":"Point","coordinates":[40.4612909449,-3.6763740175]}},{"name":"Escape","location":{"type":"Point","coordinates":[40.422897355,-3.6973725908]}},{"name":"Novotel Madrid Center","location":{"type":"Point","coordinates":[40.4216397674,-3.6722837678]}},{"name":"Mercadona Barajas","location":{"type":"Point","coordinates":[40.4713634743,-3.5901486872]}},{"name":"Ancora Madrid","location":{"type":"Point","coordinates":[40.4311673065,-3.7002670885]}},{"name":"El Trillo","location":{"type":"Point","coordinates":[40.3913353097,-3.6800387083]}},{"name":"Daily","location":{"type":"Point","coordinates":[40.4386038457,-3.69616355]}},{"name":"VIPS Palacio de Hielo","location":{"type":"Point","coordinates":[40.4629955271,-3.6354386538]}},{"name":"Bar Restaurante Iberia","location":{"type":"Point","coordinates":[40.4296773855,-3.7056325875]}}]