[{"name":"Starbucks Room Mate Oscar","location":{"type":"Point","coordinates":[40.4207518355,-3.6993145297]},"tipo":"starbucks"},{"name":"Starbucks Princesa 40","location":{"type":"Point","coordinates":[40.4290687401,-3.7150786672]},"tipo":"starbucks"},{"name":"Starbucks Plaza R\u00edo 2","location":{"type":"Point","coordinates":[40.3913038541,-3.701122859]},"tipo":"starbucks"},{"name":"Starbucks Pozuelo","location":{"type":"Point","coordinates":[40.4381681616,-3.7938381319]},"tipo":"starbucks"},{"name":"Starbucks ECI Castellana (Starbucks)","location":{"type":"Point","coordinates":[40.4474887238,-3.693093493]},"tipo":"starbucks"},{"name":"Starbucks Plaza de Espa\u00f1a","location":{"type":"Point","coordinates":[40.4233196432,-3.7108828447]},"tipo":"starbucks"},{"name":"Starbucks Preciados 27","location":{"type":"Point","coordinates":[40.4196678457,-3.7061354224]},"tipo":"starbucks"},{"name":"Starbucks Alcal\u00e1 21","location":{"type":"Point","coordinates":[40.4180381852,-3.6993715131]},"tipo":"starbucks"},{"name":"Starbucks Serrano, 100","location":{"type":"Point","coordinates":[40.4335639178,-3.6868293595]},"tipo":"starbucks"},{"name":"Starbucks Orense 79","location":{"type":"Point","coordinates":[40.45957,-3.6943874]},"tipo":"starbucks"},{"name":"Starbucks Gran V\u00eda 30","location":{"type":"Point","coordinates":[40.4201403939,-3.7028860334]},"tipo":"starbucks"},{"name":"Starbucks Conde de Pe\u00f1alver","location":{"type":"Point","coordinates":[40.4260668011,-3.6756167469]},"tipo":"starbucks"},{"name":"Starbucks Juan Bravo","location":{"type":"Point","coordinates":[40.4329676067,-3.6832201481]},"tipo":"starbucks"},{"name":"Starbucks ECI Sanchinarro","location":{"type":"Point","coordinates":[40.4976872164,-3.6603681413]},"tipo":"starbucks"},{"name":"Starbucks CC Dreams","location":{"type":"Point","coordinates":[40.4628226824,-3.6367580323]},"tipo":"starbucks"},{"name":"Starbucks Reina Sofia","location":{"type":"Point","coordinates":[40.4088521458,-3.6932365393]},"tipo":"starbucks"},{"name":"Starbucks Fuencarral 43","location":{"type":"Point","coordinates":[40.4231129898,-3.7007984085]},"tipo":"starbucks"},{"name":"Starbucks Gran V\u00eda 58","location":{"type":"Point","coordinates":[40.4217519182,-3.7083782103]},"tipo":"starbucks"},{"name":"Starbucks","location":{"type":"Point","coordinates":[40.4153232735,-3.6949486688]},"tipo":"starbucks"},{"name":"Starbucks G\u00e9nova 27","location":{"type":"Point","coordinates":[40.4257603573,-3.6917817593]},"tipo":"starbucks"},{"name":"Starbucks Orense 6","location":{"type":"Point","coordinates":[40.4477286976,-3.6951754717]},"tipo":"starbucks"},{"name":"Starbucks Pr\u00edncipe P\u00edo","location":{"type":"Point","coordinates":[40.4219499935,-3.7203776278]},"tipo":"starbucks"},{"name":"Starbucks Arenal 14","location":{"type":"Point","coordinates":[40.4171951671,-3.7061185488]},"tipo":"starbucks"},{"name":"Starbucks Parquesur","location":{"type":"Point","coordinates":[40.3393318306,-3.7333420586]},"tipo":"starbucks"},{"name":"Starbucks","location":{"type":"Point","coordinates":[40.418054,-3.710009]},"tipo":"starbucks"},{"name":"Starbucks CC La Gavia","location":{"type":"Point","coordinates":[40.3687821073,-3.5969286239]},"tipo":"starbucks"},{"name":"Starbucks CC Plenilunio","location":{"type":"Point","coordinates":[40.4463859103,-3.5875927891]},"tipo":"starbucks"},{"name":"Starbucks Vel\u00e1zquez","location":{"type":"Point","coordinates":[40.4394314444,-3.6826531171]},"tipo":"starbucks"},{"name":"Starbucks ECI M\u00e9ndez \u00c1lvaro","location":{"type":"Point","coordinates":[40.39469,-3.676454]},"tipo":"starbucks"},{"name":"Starbucks CC La Vaguada","location":{"type":"Point","coordinates":[40.4796359803,-3.7073572859]},"tipo":"starbucks"},{"name":"Starbucks La Finca","location":{"type":"Point","coordinates":[40.4188886728,-3.8006627227]},"tipo":"starbucks"},{"name":"Starbucks","location":{"type":"Point","coordinates":[40.455039,-3.583356]},"tipo":"starbucks"},{"name":"Starbucks","location":{"type":"Point","coordinates":[40.4204509759,-3.6796733064]},"tipo":"starbucks"},{"name":"Starbucks ECI Pozuelo","location":{"type":"Point","coordinates":[40.4631010582,-3.8063828409]},"tipo":"starbucks"},{"name":"Starbucks","location":{"type":"Point","coordinates":[40.417539,-3.702775]},"tipo":"starbucks"},{"name":"Starbucks CC Islazul","location":{"type":"Point","coordinates":[40.3635027123,-3.7365511407]},"tipo":"starbucks"},{"name":"Starbucks","location":{"type":"Point","coordinates":[40.4467759919,-3.6918291112]},"tipo":"starbucks"},{"name":"Starbucks Quevedo","location":{"type":"Point","coordinates":[40.433353,-3.703958]},"tipo":"starbucks"},{"name":"Starbucks Vel\u00e1zquez, 32","location":{"type":"Point","coordinates":[40.4249746365,-3.6841072122]},"tipo":"starbucks"},{"name":"Starbucks","location":{"type":"Point","coordinates":[40.4174894215,-3.7046651404]},"tipo":"starbucks"},{"name":"Starbucks","location":{"type":"Point","coordinates":[40.4031205771,-3.6876876856]},"tipo":"starbucks"},{"name":"Starbucks Teatro Real","location":{"type":"Point","coordinates":[40.4181064839,-3.7096060775]},"tipo":"starbucks"},{"name":"Starbucks San Miguel","location":{"type":"Point","coordinates":[40.4157329758,-3.7087178227]},"tipo":"starbucks"},{"name":"Starbucks ECI Preciados","location":{"type":"Point","coordinates":[40.4174674,-3.7043957]},"tipo":"starbucks"},{"name":"Starbucks","location":{"type":"Point","coordinates":[40.440273,-3.682125]},"tipo":"starbucks"},{"name":"Starbucks Palace","location":{"type":"Point","coordinates":[40.414995,-3.695058]},"tipo":"starbucks"},{"name":"Starbucks","location":{"type":"Point","coordinates":[40.421095,-3.70256]},"tipo":"starbucks"}]