[{"name":"VEGA","location":{"type":"Point","coordinates":[40.4223184139,-3.7060473849]},"tipo":"veganos"},{"name":"B13 Bar","location":{"type":"Point","coordinates":[40.4219213176,-3.7034018917]},"tipo":"veganos"},{"name":"pura vida vegan bar","location":{"type":"Point","coordinates":[40.410208473,-3.7090293481]},"tipo":"veganos"},{"name":"Lev\u00e9l Veggie Bistro","location":{"type":"Point","coordinates":[40.4157301744,-3.6776411533]},"tipo":"veganos"},{"name":"La Encomienda","location":{"type":"Point","coordinates":[40.4106719712,-3.7059818747]},"tipo":"veganos"},{"name":"Restaurante Yerbabuena","location":{"type":"Point","coordinates":[40.4163651072,-3.7077272424]},"tipo":"veganos"},{"name":"Distrito Vegano","location":{"type":"Point","coordinates":[40.4069720377,-3.6996788207]},"tipo":"veganos"},{"name":"Veggie ROOM","location":{"type":"Point","coordinates":[40.4256178806,-3.7026350727]},"tipo":"veganos"},{"name":"Viva Burger","location":{"type":"Point","coordinates":[40.4126301933,-3.711682748]},"tipo":"veganos"},{"name":"EcoCentro","location":{"type":"Point","coordinates":[40.4428576982,-3.704663591]},"tipo":"veganos"},{"name":"Restaurante Vegaviana","location":{"type":"Point","coordinates":[40.423272191,-3.6981513504]},"tipo":"veganos"},{"name":"Loving Hut","location":{"type":"Point","coordinates":[40.4240120441,-3.7093376059]},"tipo":"veganos"},{"name":"La Quietud Tiyoweh","location":{"type":"Point","coordinates":[40.4111531739,-3.6949271742]},"tipo":"veganos"},{"name":"Sanissimo Opera","location":{"type":"Point","coordinates":[40.4189831243,-3.7093189082]},"tipo":"veganos"},{"name":"Superchulo","location":{"type":"Point","coordinates":[40.4285434201,-3.7033355983]},"tipo":"veganos"},{"name":"AbonaVida","location":{"type":"Point","coordinates":[40.419167432,-3.706632337]},"tipo":"veganos"},{"name":"La Galette 2 - Casa Escondida","location":{"type":"Point","coordinates":[40.4234492621,-3.6925402492]},"tipo":"veganos"},{"name":"la oveja negra","location":{"type":"Point","coordinates":[40.4093220354,-3.6998114404]},"tipo":"veganos"},{"name":"Crucina","location":{"type":"Point","coordinates":[40.4279921776,-3.7056230979]},"tipo":"veganos"},{"name":"Yatiri","location":{"type":"Point","coordinates":[40.4126899,-3.7033725873]},"tipo":"veganos"},{"name":"Artemisa","location":{"type":"Point","coordinates":[40.4160322677,-3.6988907186]},"tipo":"veganos"},{"name":"Viva Chapata","location":{"type":"Point","coordinates":[40.4093865025,-3.7010118679]},"tipo":"veganos"},{"name":"faborit","location":{"type":"Point","coordinates":[40.4243052069,-3.7117324643]},"tipo":"veganos"},{"name":"Buns & Bones","location":{"type":"Point","coordinates":[40.411385115,-3.6987812609]},"tipo":"veganos"},{"name":"La Huerta de Tudela","location":{"type":"Point","coordinates":[40.414903,-3.698672]},"tipo":"veganos"},{"name":"la colectiva caf\u00e9","location":{"type":"Point","coordinates":[40.4299214842,-3.6997984077]},"tipo":"veganos"},{"name":"Restaurante Emma y Julia","location":{"type":"Point","coordinates":[40.4125488662,-3.7089612914]},"tipo":"veganos"},{"name":"Magasand Columela","location":{"type":"Point","coordinates":[40.421089,-3.687984]},"tipo":"veganos"},{"name":"Celicioso","location":{"type":"Point","coordinates":[40.4203533209,-3.7010269929]},"tipo":"veganos"},{"name":"Chocolater\u00eda San Gin\u00e9s","location":{"type":"Point","coordinates":[40.416754337,-3.7070788402]},"tipo":"veganos"},{"name":"Cafelito","location":{"type":"Point","coordinates":[40.40836,-3.702761]},"tipo":"veganos"},{"name":"LUSH","location":{"type":"Point","coordinates":[40.4242012893,-3.7007108317]},"tipo":"veganos"},{"name":"Le Pain Quotidien","location":{"type":"Point","coordinates":[40.4268909,-3.6877543]},"tipo":"veganos"},{"name":"In Dreams Caf\u00e9","location":{"type":"Point","coordinates":[40.4251234173,-3.7003660938]},"tipo":"veganos"},{"name":"LUSH","location":{"type":"Point","coordinates":[40.4253451868,-3.6745260509]},"tipo":"veganos"},{"name":"Martina Cocina","location":{"type":"Point","coordinates":[40.4103264223,-3.7074081249]},"tipo":"veganos"},{"name":"Swinton & Grant","location":{"type":"Point","coordinates":[40.4059533721,-3.7018705985]},"tipo":"veganos"},{"name":"Real Food Organic","location":{"type":"Point","coordinates":[40.4543544393,-3.6775488261]},"tipo":"veganos"},{"name":"La Bicicleta Caf\u00e9","location":{"type":"Point","coordinates":[40.4237896016,-3.7022626514]},"tipo":"veganos"},{"name":"Bar D\u00edaz","location":{"type":"Point","coordinates":[40.4039169788,-3.7015548682]},"tipo":"veganos"},{"name":"Shi-Shang","location":{"type":"Point","coordinates":[40.4207436951,-3.70488092]},"tipo":"veganos"},{"name":"El Rinc\u00f3n de Fogg","location":{"type":"Point","coordinates":[40.404065,-3.677902]},"tipo":"veganos"},{"name":"Food Truck","location":{"type":"Point","coordinates":[40.4238155756,-3.6960864532]},"tipo":"veganos"},{"name":"Honest Greens","location":{"type":"Point","coordinates":[40.4499749351,-3.6925948332]},"tipo":"veganos"},{"name":"ANTICAF\u00c9","location":{"type":"Point","coordinates":[40.4168119631,-3.7102716703]},"tipo":"veganos"},{"name":"Krachai","location":{"type":"Point","coordinates":[40.4253416412,-3.6962992874]},"tipo":"veganos"},{"name":"Home Burger Bar","location":{"type":"Point","coordinates":[40.4218403068,-3.7055202642]},"tipo":"veganos"},{"name":"Matadero Madrid","location":{"type":"Point","coordinates":[40.3922702088,-3.6975002289]},"tipo":"veganos"},{"name":"Yoka Loka","location":{"type":"Point","coordinates":[40.411614585,-3.6986928116]},"tipo":"veganos"},{"name":"Mercadona","location":{"type":"Point","coordinates":[40.3863045709,-3.6909395666]},"tipo":"veganos"},{"name":"Plaza del Callao","location":{"type":"Point","coordinates":[40.4201448052,-3.7057628322]},"tipo":"veganos"},{"name":"UDON","location":{"type":"Point","coordinates":[40.4177087609,-3.7026939238]},"tipo":"veganos"},{"name":"El Secuestrador de Besos","location":{"type":"Point","coordinates":[40.4116960638,-3.7065739895]},"tipo":"veganos"},{"name":"El Huerto de Lucas","location":{"type":"Point","coordinates":[40.4239026102,-3.6960118559]},"tipo":"veganos"},{"name":"El Rey de Tallarines","location":{"type":"Point","coordinates":[40.4246323229,-3.7094618928]},"tipo":"veganos"},{"name":"Malvy's Shakes","location":{"type":"Point","coordinates":[40.421469,-3.701465]},"tipo":"veganos"},{"name":"VIPS Goya","location":{"type":"Point","coordinates":[40.4250751711,-3.6795203554]},"tipo":"veganos"}]